{
"type": "FeatureCollection",
"crs": { "type": "name", "properties": { "name": "urn:ogc:def:crs:OGC:1.3:CRS84" } },
                                                                                
"features": [
{ "type": "Feature", "properties": { "name": "WALNUT POINT", "elevation": null, "pipe_id": "96A18-PUMP", "model": "S4P750M3 Hydromatic", "hp": 7.500000, "amp_start": 120, "amp_run": 42.000000, "gpm": 165, "well_depth": 21.000000, "furnish": "AMBIENT TEMPERATURE SENSOR", "forcemain": null }, "geometry": { "type": "Point", "coordinates": [ -92.174605890730334, 34.857356192589101 ] } },
{ "type": "Feature", "properties": { "name": "NORTHLAKE", "elevation": null, "pipe_id": "97A33-PUMP", "model": "T4 A3 B", "hp": 10.000000, "amp_start": 130, "amp_run": 27.000000, "gpm": 350, "well_depth": 17.000000, "furnish": "AMBIENT TEMPERATURE SENSOR", "forcemain": "NORTHLAKE-88A10" }, "geometry": { "type": "Point", "coordinates": [ -92.168998462400268, 34.859632702609581 ] } },
{ "type": "Feature", "properties": { "name": "OAKRIDGE", "elevation": null, "pipe_id": "9K3-PUMP", "model": "S4P750M2 Hydromatic", "hp": 7.500000, "amp_start": null, "amp_run": null, "gpm": 120, "well_depth": 16.000000, "furnish": "AMBIENT TEMPERATURE SENSOR", "forcemain": "OAK RIDGE-32F7" }, "geometry": { "type": "Point", "coordinates": [ -92.100142706253664, 34.917135635645721 ] } },
{ "type": "Feature", "properties": { "name": "GENERAL SAMUELS", "elevation": null, "pipe_id": "63A39-PUMP", "model": "T3 A3 B", "hp": 10.000000, "amp_start": 110, "amp_run": 27.000000, "gpm": 180, "well_depth": 13.000000, "furnish": "AMBIENT TEMPERATURE SENSOR", "forcemain": "GENERAL SAMUEL-64A4" }, "geometry": { "type": "Point", "coordinates": [ -92.146697342172317, 34.878518651374307 ] } },
{ "type": "Feature", "properties": { "name": "EAST", "elevation": null, "pipe_id": "82D14-PUMP", "model": "Flyght", "hp": 35.000000, "amp_start": 240, "amp_run": 46.000000, "gpm": 2350, "well_depth": 30.000000, "furnish": "LIFT STATION FLOOD FLOAT SWITCH - AMBIENT TEMPERATURE SENSOR", "forcemain": "EAST-118H2" }, "geometry": { "type": "Point", "coordinates": [ -92.087722689382502, 34.874479132291114 ] } },
{ "type": "Feature", "properties": { "name": "VALENTINE", "elevation": null, "pipe_id": "138H11-PUMP", "model": "T3 A3 B", "hp": 5.000000, "amp_start": 50, "amp_run": 13.600000, "gpm": 86, "well_depth": 17.000000, "furnish": "AMBIENT TEMPERATURE SENSOR", "forcemain": "VALENTINE-125H17" }, "geometry": { "type": "Point", "coordinates": [ -92.122512962113774, 34.835571642907688 ] } },
{ "type": "Feature", "properties": { "name": "SOUTH JACKSONVILLE", "elevation": null, "pipe_id": "136H14-PUMP", "model": "T4 A3 B", "hp": 7.500000, "amp_start": 100, "amp_run": 23.000000, "gpm": 200, "well_depth": 18.000000, "furnish": "AMBIENT TEMPERATURE SENSOR", "forcemain": "SOUTH JACKSONVILLE-125H17" }, "geometry": { "type": "Point", "coordinates": [ -92.136345588518495, 34.833346668141843 ] } },
{ "type": "Feature", "properties": { "name": "HARRIS", "elevation": null, "pipe_id": null, "model": "T4 A3 B", "hp": 15.000000, "amp_start": 110, "amp_run": 43.000000, "gpm": 103, "well_depth": 10.000000, "furnish": "AMBIENT TEMPERATURE SENSOR", "forcemain": "HARRIS-64A4" }, "geometry": { "type": "Point", "coordinates": [ -92.157436290153754, 34.881240132115153 ] } },
{ "type": "Feature", "properties": { "name": "BASE MEADOWS", "elevation": null, "pipe_id": "48A8-PUMP", "model": null, "hp": null, "amp_start": null, "amp_run": null, "gpm": null, "well_depth": null, "furnish": "AMBIENT TEMPERATURE SENSOR", "forcemain": "BASE MEADOWS-48A44" }, "geometry": { "type": "Point", "coordinates": [ -92.17663693569942, 34.882579059342902 ] } },
{ "type": "Feature", "properties": { "name": "SOUTHEASTERN", "elevation": null, "pipe_id": null, "model": null, "hp": null, "amp_start": null, "amp_run": null, "gpm": null, "well_depth": null, "furnish": "AMBIENT TEMPERATURE SENSOR", "forcemain": "SOUTHEASTERN-DOGGIE RD" }, "geometry": { "type": "Point", "coordinates": [ -92.092992803806979, 34.823721772411822 ] } },
{ "type": "Feature", "properties": { "name": "DOGGIE RD", "elevation": null, "pipe_id": null, "model": null, "hp": null, "amp_start": null, "amp_run": null, "gpm": null, "well_depth": null, "furnish": "AMBIENT TEMPERATURE SENSOR", "forcemain": "DOGGIE RD-CLYDE LN" }, "geometry": { "type": "Point", "coordinates": [ -92.108603054519307, 34.8234893099998 ] } },
{ "type": "Feature", "properties": { "name": "GUN CLUB", "elevation": null, "pipe_id": null, "model": null, "hp": null, "amp_start": null, "amp_run": null, "gpm": null, "well_depth": null, "furnish": "AMBIENT TEMPERATURE SENSOR", "forcemain": "GUN CLUB-136H26" }, "geometry": { "type": "Point", "coordinates": [ -92.134545040963943, 34.82356688831409 ] } },
{ "type": "Feature", "properties": { "name": "CLYDE LANE", "elevation": null, "pipe_id": null, "model": null, "hp": null, "amp_start": null, "amp_run": null, "gpm": null, "well_depth": null, "furnish": "AMBIENT TEMPERATURE SENSOR", "forcemain": "CLYDE LANE-138H11" }, "geometry": { "type": "Point", "coordinates": [ -92.117668954868165, 34.831623472319933 ] } },
{ "type": "Feature", "properties": { "name": "GAME & FISH", "elevation": 258.662000, "pipe_id": "PRIVATE", "model": null, "hp": null, "amp_start": null, "amp_run": null, "gpm": null, "well_depth": null, "furnish": null, "forcemain": "GAME & FISH-82D14" }, "geometry": { "type": "Point", "coordinates": [ -92.077834667632516, 34.868340798882329 ] } },
{ "type": "Feature", "properties": { "name": "DOUBLE A", "elevation": null, "pipe_id": null, "model": null, "hp": null, "amp_start": null, "amp_run": null, "gpm": null, "well_depth": null, "furnish": "AMBIENT TEMPERATURE SENSOR", "forcemain": "DOUBLE A-148H5" }, "geometry": { "type": "Point", "coordinates": [ -92.140494371117256, 34.829972052057251 ] } }
]
}
